places =
[{"placeName":"Cindy Hyde-Smith (R)","descrip":"Senator (MS) ","latitude":32.30509,"longitude":-90.18306},
{"placeName":"Katie Porter (D)","descrip":"Representative (CA-45)","latitude":33.68591,"longitude":-117.82472},
{"placeName":"Krysten Sinema (D)","descrip":"Senator (AZ)","latitude":33.44861,"longitude":-112.0966},
{"placeName":"Katie Hill (D)","descrip":"Representative (CA-25)","latitude":34.28632,"longitude":-118.7128},
{"placeName":"Kim Schrier (D)","descrip":"Representative (WA-8)","latitude":47.30752,"longitude":-122.22575},
{"placeName":"Lucy McBath (D)","descrip":"Representative (GA-6)","latitude":34.07561,"longitude":-84.29455},
{"placeName":"Jaime Herrera Beutler (R)","descrip":"Representative (WA-3)","latitude":45.63106,"longitude":-122.67157},
{"placeName":"Xochitl Torres Small (D)","descrip":"Representative (NM-2)","latitude":32.31624,"longitude":-106.78045},
{"placeName":"Elissa Slotkin (D)","descrip":"Representative (MI-8)","latitude":42.82473,"longitude":-83.26499},
{"placeName":"Jacky Rosen (D)","descrip":"Senator (NV)","latitude":39.1639,"longitude":-119.76613},
{"placeName":"Dianne Feinstein (D)","descrip":"Senator (CA)","latitude":38.57666,"longitude":-121.49511},
{"placeName":"Susie Lee (D)","descrip":"Representative (NV-3)","latitude":35.97948,"longitude":-114.8361},
{"placeName":"Dina Titus (D)","descrip":"Representative (NV-1)","latitude":36.13704,"longitude":-115.12307},
{"placeName":"Haley Stevens (D)","descrip":"Representative (MI-11)","latitude":42.56294,"longitude":-83.15404},
{"placeName":"Julia Brownley (D)","descrip":"Representative (CA-26)","latitude":34.28083,"longitude":-119.29311},
{"placeName":"Susan Davis (D) ","descrip":"Representative (CA-53)","latitude":32.66924,"longitude":-117.007429},
{"placeName":"Zoe Lofgren (D)","descrip":"Representative (CA-19)","latitude":37.334789,"longitude":-121.888138},
{"placeName":"Anna Eshoo (D)","descrip":"Representative (CA-18)","latitude":37.4451,"longitude":-122.16036},
{"placeName":"Linda Sanchez (D)","descrip":"Representative (CA-38)","latitude":33.86137,"longitude":-118.08216},
{"placeName":"Norma Torres (D)","descrip":"Representative (CA-35)","latitude":34.06335,"longitude":-117.6524},
{"placeName":"Debbie Lesko (R)","descrip":"Representative (AZ-8)","latitude":33.65473,"longitude":-112.35436},
{"placeName":"Chellie Pingree (D)","descrip":"Representative (ME-1)","latitude":43.65922,"longitude":-70.25652},
{"placeName":"Grace Napolitano (D)","descrip":"Representative (CA-32)","latitude":34.08273,"longitude":-117.93148},
{"placeName":"Jackie Speier (D)","descrip":"Representative (CA-14)","latitude":37.54715,"longitude":-122.3144},
{"placeName":"Tulsi Gabbard (D)","descrip":"Representative (HI-2)","latitude":19.72526,"longitude":-155.08909},
{"placeName":"Doris Matsui (D)","descrip":"Representative (CA-6)","latitude":38.57693,"longitude":-121.49495},
{"placeName":"Judy Chu (D)","descrip":"Representative (CA-27)","latitude":34.12736,"longitude":-118.04587},
{"placeName":"Jahana Hayes (D)","descrip":"Representative (CT-5)","latitude":41.69125,"longitude":-72.86161},
{"placeName":"Nancy Pelosi (D)","descrip":"Representative (CA-12)","latitude":37.78008,"longitude":-122.42017},
{"placeName":"Lizzie Fletcher (D)","descrip":"Representative (TX-7)","latitude":29.78438,"longitude":-95.68559},
{"placeName":"Barbara Lee (D)","descrip":"Representative (CA-13)","latitude":37.80483,"longitude":-122.27248},
{"placeName":"Abigail Spanberger (D)","descrip":" Representative (VA-7)","latitude":37.54107,"longitude":-77.91886},
{"placeName":"Lucille Roybal-Allard (D) ","descrip":"Representative (CA-40)","latitude":33.88733,"longitude":-118.16145},
{"placeName":"Maxine Waters (D)","descrip":"Representative (CA-43)","latitude":33.91642,"longitude":-118.35028},
{"placeName":"Nanette Barragan (D)","descrip":"Representative (CA-44)","latitude":33.89834,"longitude":-118.22075},
{"placeName":"Angie Craig (D)","descrip":"Representative (MN-2)","latitude":44.81887,"longitude":-93.16722},
{"placeName":"Karen Bass (D)","descrip":"Representative (CA-37)","latitude":33.96177,"longitude":-118.35334},
{"placeName":"Suzan DelBene (D)","descrip":"Representative (WA-1)","latitude":47.61921,"longitude":-122.22803},
{"placeName":"Cathy McMorris Rodgers (R)","descrip":"Representative (WA-5)","latitude":47.659,"longitude":-117.42502},
{"placeName":"Kendra Horn (D)","descrip":"Representative (OK-5)","latitude":35.46849,"longitude":-97.52126},
{"placeName":"Ann Wagner (R)","descrip":"Representative (MO-2)","latitude":38.4703,"longitude":-90.30495},
{"placeName":"Ann Kirkpatrick (D)","descrip":"Representative (AZ-2)","latitude":32.25105,"longitude":-110.73947},
{"placeName":"Cindy Axne (D)","descrip":"Representative (IA-3)","latitude":41.05925,"longitude":-94.36965},
{"placeName":"Suzanne Bonamici (D)","descrip":"Representative (OR-1)","latitude":45.85876,"longitude":-123.18851},
{"placeName":"Maria Cantwell (D)","descrip":"Senator (WA)","latitude":47.03553,"longitude":-122.90083},
{"placeName":"Abby Finkenauer (D)","descrip":"Representative (IA-1)","latitude":42.49347,"longitude":-92.34364},
{"placeName":"Pramila Jayapal (D)","descrip":"Representative (WA-7)","latitude":47.81162,"longitude":-122.37664},
{"placeName":"Kathleen Rice (D)","descrip":"Representative (NY-4)","latitude":40.663,"longitude":-73.61071},
{"placeName":"Debbie Stabenow (D)","descrip":"Senator (MI)","latitude":42.73362,"longitude":-84.553932},
{"placeName":"Elise Stefanik (R)","descrip":"Representative (NY-21)","latitude":43.97238,"longitude":-75.91125},
{"placeName":"Lori Trahan (D)","descrip":"Representative (MA-3)","latitude":42.64543,"longitude":-71.3074},
{"placeName":"Mazie Hirono (D)","descrip":"Senator (HI)","latitude":21.30992,"longitude":-157.85816},
{"placeName":"Lauren Underwood (D)","descrip":"Representative (IL-14)","latitude":41.89343,"longitude":-87.85661},
{"placeName":"Tina Smith (D)","descrip":"Senator (MN)","latitude":44.953705,"longitude":-93.089958},
{"placeName":"Nita Lowey (D)","descrip":"Representative (NY-17)","latitude":41.03273,"longitude":-73.76633},
{"placeName":"Elaine Luria (D)","descrip":"Representative (VA-2)","latitude":36.84513,"longitude":-75.97544},
{"placeName":"Debbie Dingell (D)","descrip":"Representative (MI-12)","latitude":42.1653,"longitude":-83.40293},
{"placeName":"Diana DeGette (D)","descrip":"Representative (CO-1)","latitude":39.738449,"longitude":-104.984848},
{"placeName":"Madeleine Dean (D)","descrip":"Representative (PA-4)","latitude":40.10581,"longitude":-75.34681},
{"placeName":"Vicky Hartzler (R)","descrip":"Representative (MO-4)","latitude":37.67543,"longitude":-92.66401},
{"placeName":"Debra Haaland (D)","descrip":"Representative (NM-1)","latitude":34.5204,"longitude":-106.2444},
{"placeName":"Ann McLane Kuster (D)","descrip":"Representative (NH-2)","latitude":43.20957,"longitude":-71.53729},
{"placeName":"Katherine Clark (D)","descrip":"Representative (MA-5)","latitude":42.28156,"longitude":-71.41883},
{"placeName":"Brenda Lawrence (D)","descrip":"Representative (MI-14)","latitude":42.48467,"longitude":-83.35918},
{"placeName":"Betty McCollum (D)","descrip":"Representative (MN-4)","latitude":45.00641,"longitude":-93.02519},
{"placeName":"Rashida Tlaib (D)","descrip":"Representative (MI-13)","latitude":42.28085,"longitude":-83.3838},
{"placeName":"Deb Fischer (R)","descrip":"Senator (NE)","latitude":40.8136,"longitude":-96.70261},
{"placeName":"Susan Wild (D)","descrip":"Representative (PA-7)","latitude":40.92179,"longitude":-75.10054},
{"placeName":"Mikie Sherrill (D)","descrip":" Representative (NJ-11)","latitude":40.9278,"longitude":-74.23183},
{"placeName":"Cheri Bustos (D)","descrip":"Representative (IL-17)","latitude":40.9475,"longitude":-90.37249},
{"placeName":"Gwen Moore (D)","descrip":"Representative (WI-4)","latitude":43.04107,"longitude":-87.90942},
{"placeName":"Rosa DeLauro (D)","descrip":"Representative (CT-3)","latitude":41.20089,"longitude":-73.13132},
{"placeName":"Sharice Davids (D)","descrip":"Representative (KS-3)","latitude":38.88353,"longitude":-94.81824},
{"placeName":"Marsha Blackburn (R)","descrip":"Senator (TN)","latitude":36.16634,"longitude":-86.77907},
{"placeName":"Chrissy Houlahan (D)","descrip":"Representative (PA-6)","latitude":40.33692,"longitude":-75.92196},
{"placeName":"Mary Scanlon (D)","descrip":"Representative (PA-5)","latitude":39.91049,"longitude":-75.3251},
{"placeName":"Carol Miller (R)","descrip":"Representative (WV-3)","latitude":37.77091,"longitude":-81.20839},
{"placeName":"Liz Cheney (R)","descrip":"Representative (WY)","latitude":41.14024,"longitude":-104.8188},
{"placeName":"Bonnie Watson Coleman (D)","descrip":"Representative (NJ-12)","latitude":40.22057,"longitude":-74.75971},
{"placeName":"Martha Roby (R)","descrip":"Representative (AL-2)","latitude":31.41453,"longitude":-86.06699},
{"placeName":"Tammy Baldwin (D)","descrip":"Senator (WI)","latitude":43.07393,"longitude":-89.38524},
{"placeName":"Debbie Murcasel-Powell (D)","descrip":"Representative (FL-26)","latitude":24.55975,"longitude":-81.7837},
{"placeName":"Alexandria Ocasio-Cortez (D)","descrip":"Representative (NY-14)","latitude":40.76689,"longitude":-73.92139},
{"placeName":"Yvette Clarke (D)","descrip":"Representative (NY-9)","latitude":41.3583,"longitude":-73.84706},
{"placeName":"Amy Klobuchar (D)","descrip":"Senator (MN)","latitude":45.018269,"longitude":-93.473892},
{"placeName":"Jackie Walorski (R)","descrip":"Representative (IN-2)","latitude":41.67503,"longitude":-86.25196},
{"placeName":"Grace Meng (D)","descrip":"Representative (NY-6)","latitude":40.76153,"longitude":-73.83111},
{"placeName":"Nydia Velazquez (D)","descrip":"Representative (NY-7)","latitude":40.69345,"longitude":-73.91701},
{"placeName":"Carolyn Maloney (D)","descrip":"Representative (NY-12)","latitude":40.72709,"longitude":-73.94673},
{"placeName":"Virginia Foxx (R)","descrip":"Representative (NC-5)","latitude":36.16328,"longitude":-81.87185},
{"placeName":"Ilhan Omar (D)","descrip":"Representative (MN-5)","latitude":45.02965,"longitude":-93.33737},
{"placeName":"Kay Granger (R)","descrip":"Representative (TX-12)","latitude":32.6957,"longitude":-97.6025},
{"placeName":"Veronica Escobar (D)","descrip":"Representative (TX-16)","latitude":31.81253,"longitude":-106.42131},
{"placeName":"Sylvia Garcia (D)","descrip":"Representative (TX-29)","latitude":29.69338,"longitude":-95.19333},
{"placeName":"Sheila Jackson Lee (D)","descrip":"Representative (TX-18)","latitude":29.7676,"longitude":-95.24042},
{"placeName":"Susan Brooks (R)","descrip":"Representative (IN-5)","latitude":39.97839,"longitude":-86.12707},
{"placeName":"Jan Schakowsky (D)","descrip":"Representative (IL-9)","latitude":42.05216,"longitude":-87.68787},
{"placeName":"Robin Kelly (D)","descrip":"Representative (IL-2)","latitude":41.34071,"longitude":-87.62384},
{"placeName":"Lisa Rochester (D)","descrip":"Representative (DE)","latitude":39.15883,"longitude":-75.52114},
{"placeName":"Kirsten Gillibrand (D)","descrip":"Senator (NY)","latitude":42.65172,"longitude":-73.75509},
{"placeName":"Kathy Castor (D)","descrip":"Representative (FL-14)","latitude":27.94742,"longitude":-82.45878},
{"placeName":"Val Demings (D)","descrip":"Representative (FL-10)","latitude":28.37307,"longitude":-81.55694},
{"placeName":"Donna Shalala (D)","descrip":"Representative (FL-27)","latitude":25.79224,"longitude":-80.13485},
{"placeName":"Frederica Wilson (D)","descrip":"Representative (FL-24)","latitude":25.92723,"longitude":-80.22848},
{"placeName":"Lois Frankel (D)","descrip":"Representative (FL-21)","latitude":26.52891,"longitude":-80.06417},
{"placeName":"Jennifer Wexton (D)","descrip":"Representative (VA-10)","latitude":39.17785,"longitude":-78.16969},
{"placeName":"Alma Adams (D)","descrip":"Representative (NC-12)","latitude":35.22379,"longitude":-80.84114},
{"placeName":"Eddie Bernice Johnson (D)","descrip":"Representative (TX-30)","latitude":32.60072,"longitude":-96.78456},
{"placeName":"Terri Sewell (D)","descrip":"Representative (AL-7)","latitude":32.43122,"longitude":-87.03239},
{"placeName":"Debbie Wasserman Schultz (D)","descrip":"Representative (FL-23)","latitude":26.10061,"longitude":-80.39994},
{"placeName":"Ayanna Pressley (D)","descrip":"Representative (MA-7)","latitude":42.39367,"longitude":-71.03254},
{"placeName":"Elizabeth Warren (D)","descrip":"Senator (MA)","latitude":42.35899,"longitude":-71.05863},
{"placeName":"Marcy Kaptur (D)","descrip":"Representative (OH-9)","latitude":41.6553,"longitude":-83.53572},
{"placeName":"Marcia Fudge (D)","descrip":"Representative (OH-11)","latitude":41.44219,"longitude":-81.52758},
{"placeName":"Joyce Beatty (D)","descrip":"Representative (OH-3)","latitude":39.96911,"longitude":-82.88517},
{"placeName":"Stephanie Murphy (D)","descrip":"Representative (FL-7)","latitude":28.60025,"longitude":-81.33882}]
